City ID,City,Lat,Lng,Max Temp,Humidity,Cloudiness,Wind Speed,Country,Date
0,Ushuaia,-54.8,-68.3,53.6,50,40,6.91,AR,1620793601
1,Enid,36.3956,-97.8784,48.0,87,1,6.91,US,1620793807
2,Huarmey,-10.0681,-78.1522,65.8,85,4,7.72,PE,1620793808
3,Hūn,29.1268,15.9477,78.75,26,0,4.07,LY,1620793808
4,Disna,55.568,28.1971,57.81,83,17,9.69,BY,1620793809
5,Krasnosel'kup,65.7,82.4667,35.42,94,100,13.69,RU,1620793809
6,Pisco,-13.7,-76.2167,64.4,82,20,2.3,PE,1620793810
7,Rikitea,-23.1203,-134.9692,77.99,78,25,23.58,PF,1620793762
8,Banda Aceh,5.5577,95.3222,85.71,70,66,4.21,ID,1620793810
9,Puerto Ayora,-0.7393,-90.3518,75.99,92,28,5.01,EC,1620793811
10,Chokurdakh,70.6333,147.9167,27.43,82,100,4.79,RU,1620793811
11,Pevek,69.7008,170.3133,25.45,82,100,0.78,RU,1620793811
12,Airai,-8.9266,125.4092,74.14,53,11,4.47,TL,1620793812
13,Butaritari,3.0707,172.7902,82.74,75,100,10.36,KI,1620793812
14,Qaanaaq,77.484,-69.3632,20.37,90,100,7.43,GL,1620793813
15,Saint-Leu,-21.15,55.2833,77.0,64,0,4.61,RE,1620793813
16,Jamestown,42.097,-79.2353,41.0,81,90,6.91,US,1620793813
17,Cabo San Lucas,22.8909,-109.9124,78.01,77,54,9.8,MX,1620793814
18,Klaksvík,62.2266,-6.589,37.4,75,82,6.91,FO,1620793814
19,Port Alfred,-33.5906,26.891,59.79,86,9,14.74,ZA,1620793815
20,Aksu,41.1231,80.2644,72.91,18,100,11.77,CN,1620793815
21,Yong’an,39.6957,113.6871,77.13,28,20,6.22,CN,1620793815
22,Mataura,-46.1927,168.8643,50.0,65,10,1.88,NZ,1620793816
23,Bredasdorp,-34.5322,20.0403,55.4,82,21,8.05,ZA,1620793816
24,Kapaa,22.0752,-159.319,78.8,65,40,12.66,US,1620793817
25,Vaini,-21.2,-175.2,77.0,73,20,10.36,TO,1620793817
26,New Norfolk,-42.7826,147.0587,57.99,70,5,1.99,AU,1620793817
27,Saint George,37.1041,-113.5841,73.4,10,1,11.5,US,1620793818
28,Dukat,62.55,155.55,29.75,87,100,5.1,RU,1620793818
29,Salalah,17.0151,54.0924,86.0,70,75,5.86,OM,1620793907
30,Namatanai,-3.6667,152.4333,83.8,69,51,6.08,PG,1620793907
31,Tuktoyaktuk,69.4541,-133.0374,21.2,93,90,21.85,CA,1620793908
32,Novo Aripuanã,-5.1206,-60.3797,72.45,98,65,2.3,BR,1620793908
33,Kaabong,3.4836,34.1492,64.44,81,98,1.57,UG,1620793909
34,Caconda,-13.7333,15.0667,51.35,70,0,4.0,AO,1620793909
35,Värnamo,57.186,14.04,53.01,86,100,10.4,SE,1620793910
36,Tasiilaq,65.6145,-37.6368,26.6,93,75,14.97,GL,1620793910
37,Atuona,-9.8,-139.0333,80.42,80,18,25.32,PF,1620793910
38,Sept-Îles,50.2001,-66.3821,41.0,93,75,3.44,CA,1620793911
39,Novikovo,51.1537,37.8879,49.55,73,80,15.7,RU,1620793911
40,Ponta do Sol,32.6667,-17.1,57.99,71,62,3.0,PT,1620793912
41,Paraíso,9.8383,-83.8656,69.8,100,0,4.61,CR,1620793912
42,Lebu,-37.6167,-73.65,49.82,79,41,10.16,CL,1620793912
43,Arraial do Cabo,-22.9661,-42.0278,68.88,81,11,5.68,BR,1620793913
44,Fare,-16.7,-151.0167,81.75,75,67,18.9,PF,1620793913
45,Kavaratti,10.5669,72.642,84.47,72,100,3.36,IN,1620793914
46,Vrises,35.492,23.8899,66.99,82,0,2.82,GR,1620793914
47,Mergen,49.1833,125.2167,49.1,78,100,12.88,CN,1620793915
48,Vila Velha,-20.3297,-40.2925,70.0,94,0,2.3,BR,1620793915
49,Hilo,19.7297,-155.09,78.8,65,40,8.05,US,1620793915
50,Pout,14.7739,-17.0603,69.8,88,0,6.91,SN,1620793916
51,Port Hedland,-20.3167,118.5667,93.2,20,0,13.8,AU,1620793916
52,Doha,25.2867,51.5333,91.4,24,0,2.3,QA,1620793917
53,Bluff,-46.6,168.3333,50.0,65,19,2.08,NZ,1620793917
54,Alice Springs,-23.7,133.8833,73.99,34,0,8.05,AU,1620793809
55,Hermanus,-34.4187,19.2345,53.01,97,40,5.26,ZA,1620793918
56,Khakhea,-24.6895,23.494,55.81,45,0,4.61,BW,1620793918
57,Yerbogachën,61.2767,108.0108,40.3,45,100,7.9,RU,1620793919
58,Balabac,7.9868,117.0645,86.27,71,37,10.42,PH,1620793919
59,Macomer,40.262,8.7699,59.0,77,0,9.22,IT,1620793919
60,Souillac,-20.5167,57.5167,73.4,88,20,9.95,MU,1620793920
61,Thompson,55.7435,-97.8558,51.8,40,40,5.75,CA,1620793683
62,Albany,42.6001,-73.9662,46.99,50,5,11.72,US,1620793838
63,Khatanga,71.9667,102.5,32.79,100,100,8.46,RU,1620793921
64,Saint-Philippe,-21.3585,55.7679,77.0,64,0,4.61,RE,1620793921
65,Zemio,5.0314,25.1361,68.92,98,100,1.03,CF,1620793921
66,Praia da Vitória,38.7333,-27.0667,57.0,88,0,6.4,PT,1620793922
67,Lorengau,-2.0226,147.2712,76.68,93,100,5.61,PG,1620793922
68,Saint-Augustin,51.226,-58.6502,38.08,89,100,13.49,CA,1620793922
69,Aleksandrov Gay,50.147,48.5704,59.34,82,96,11.03,RU,1620793923
70,Gamba,-2.65,10.0,76.46,92,88,3.09,GA,1620793923
71,Švenčionys,55.15,26.1667,57.2,80,70,7.47,LT,1620793924
72,Puerto Nariño,-3.7703,-70.3831,75.2,100,40,1.9,CO,1620793924
73,Zhigansk,66.7697,123.3711,36.0,58,7,12.37,RU,1620793925
74,Te Anau,-45.4167,167.7167,42.75,73,1,2.33,NZ,1620793925
75,Chapleau,47.8405,-83.4034,30.36,90,10,4.81,CA,1620793805
76,Il’inskiy,55.619,38.1182,55.0,93,49,3.56,RU,1620793926
77,Riachão das Neves,-11.7461,-44.91,65.53,67,78,1.95,BR,1620793926
78,Coquimbo,-29.9533,-71.3436,53.6,94,90,3.44,CL,1620793926
79,Rawson,-43.3002,-65.1023,57.15,34,93,7.49,AR,1620793927
80,North Bend,43.4065,-124.2243,52.0,87,40,20.71,US,1620793927
81,Hobart,-42.8794,147.3294,57.99,67,75,10.36,AU,1620793900
82,Paragominas,-2.9667,-47.4833,70.68,96,78,3.0,BR,1620793928
83,Changqing,36.5575,116.7272,85.33,26,1,2.19,CN,1620793928
84,Hong Kong,22.2855,114.1577,89.01,76,11,11.01,HK,1620793755
85,Mehamn,71.0357,27.8492,39.2,65,75,3.44,NO,1620793929
86,Iqaluit,63.7506,-68.5145,26.6,93,75,8.05,CA,1620793929
87,Port Elizabeth,-33.918,25.5701,57.2,88,0,16.11,ZA,1620793929
88,Martinsburg,39.4562,-77.9639,50.0,37,75,12.66,US,1620793930
89,Barrow,71.2906,-156.7887,17.6,79,90,9.22,US,1620793761
90,Cape Town,-33.9258,18.4232,55.99,93,75,2.3,ZA,1620793729
91,Cherskiy,68.75,161.3,26.78,80,92,4.83,RU,1620793931
92,Fairbanks,64.8378,-147.7164,53.6,66,90,3.44,US,1620793805
93,Los Llanos de Aridane,28.6585,-17.9182,64.4,68,0,11.5,ES,1620793931
94,Busselton,-33.65,115.3333,61.0,71,92,4.0,AU,1620793931
95,Katubao,5.8892,124.8294,89.6,58,75,6.91,PH,1620793932
96,Leningradskiy,69.3833,178.4167,31.87,94,100,10.18,RU,1620793932
97,Gazli,40.1333,63.45,78.55,24,1,13.31,UZ,1620793933
98,Kahului,20.8947,-156.47,77.0,57,40,20.71,US,1620793933
99,Mar del Plata,-38.0023,-57.5575,48.99,93,0,4.61,AR,1620793934
100,Saint Anthony,45.0205,-93.218,51.8,49,1,5.46,US,1620793934
101,Mahébourg,-20.4081,57.7,73.4,88,20,10.25,MU,1620793935
102,Ahipara,-35.1667,173.1667,64.17,87,89,7.56,NZ,1620793935
103,Paamiut,61.994,-49.6678,36.41,75,100,1.57,GL,1620793936
104,Saint Paul Harbor,57.79,-152.4072,41.47,84,100,3.13,US,1620793936
105,Santiago del Estero,-27.7951,-64.2615,51.67,69,0,4.81,AR,1620793936
106,Avarua,-21.2078,-159.775,71.6,100,75,5.75,CK,1620793937
107,Wanaka,-44.7,169.15,40.08,73,7,2.26,NZ,1620793937
108,Pakxan,18.3778,103.6601,98.01,48,26,5.86,LA,1620793938
109,Umeå,63.8284,20.2597,46.4,100,20,3.44,SE,1620793938
110,Hofn,64.2539,-15.2082,33.89,64,62,3.74,IS,1620793939
111,Tuatapere,-46.1333,167.6833,50.0,65,7,2.86,NZ,1620793939
112,Caravelas,-17.7125,-39.2481,69.3,79,1,3.56,BR,1620793940
113,Saskylakh,71.9167,114.0833,31.62,82,100,9.62,RU,1620793940
114,Faanui,-16.4833,-151.75,82.2,74,41,19.62,PF,1620793940
115,Vicuña,-30.0319,-70.7081,53.6,94,90,3.44,CL,1620793941
116,Bengkulu,-3.8004,102.2655,85.3,73,65,6.6,ID,1620793941
117,Punta Arenas,-53.15,-70.9167,46.4,71,75,14.97,CL,1620793942
118,Nantucket,41.2835,-70.0995,52.0,76,40,11.5,US,1620793942
119,Yar-Sale,66.8333,70.8333,36.09,98,97,3.78,RU,1620793942
120,Rēzekne,56.5,27.3167,57.92,79,61,8.52,LV,1620793943
121,Narsaq,60.9167,-46.05,39.2,52,75,3.44,GL,1620793943
122,Kruisfontein,-34.0033,24.7314,56.12,88,5,16.02,ZA,1620793944
123,Yulara,-25.2406,130.9889,69.8,37,0,5.75,AU,1620793944
124,Haines Junction,60.7522,-137.5108,44.6,45,96,9.22,CA,1620793944
125,Kaset Sombun,16.2805,101.9542,96.96,40,27,6.11,TH,1620793945
126,Ancud,-41.8697,-73.8203,48.99,93,90,5.75,CL,1620793945
127,Lábrea,-7.2586,-64.7981,71.91,98,93,1.3,BR,1620793946
128,Tsimmerbude,54.675,20.1347,55.4,58,0,6.71,RU,1620793946
129,High River,50.5834,-113.8687,44.01,72,90,3.2,CA,1620793808
130,Kristinestad,62.2743,21.376,51.06,88,65,6.53,FI,1620793947
131,Korla,41.7597,86.1469,62.91,48,99,17.52,CN,1620793947
132,Port-Gentil,-0.7193,8.7815,80.87,79,50,7.43,GA,1620793947
133,Poum,-20.2333,164.0167,79.27,77,100,14.32,NC,1620793948
134,Dikson,73.5069,80.5464,29.14,88,100,17.67,RU,1620793948
135,Celestún,20.8667,-90.4,83.61,66,71,17.36,MX,1620793949
136,Constitución,-35.3333,-72.4167,53.51,53,29,5.73,CL,1620793949
137,Coahuayana Viejo,18.7333,-103.6833,77.58,86,100,1.63,MX,1620793950
138,Colquechaca,-18.6667,-66.0167,32.5,77,89,2.91,BO,1620793950
139,Meulaboh,4.1363,96.1285,83.55,72,94,0.85,ID,1620793951
140,Abonnema,4.7084,6.7931,77.27,85,98,4.63,NG,1620793932
141,San Juan,-31.5375,-68.5364,56.7,52,0,7.9,AR,1620793951
142,Bikin,46.8161,134.26,58.68,57,100,11.45,RU,1620793951
143,Petropavlovsk-Kamchatskiy,53.0452,158.6483,55.4,35,42,8.95,RU,1620793952
144,Emba,48.8264,58.1442,66.9,34,58,16.53,KZ,1620793952
145,Geraldton,-28.7667,114.6,78.8,61,40,8.05,AU,1620793866
146,Nabire,-3.3667,135.4833,85.59,68,46,5.73,ID,1620793953
147,Inhambane,-23.865,35.3833,59.0,100,20,1.5,MZ,1620793953
148,Severo-Kuril'sk,50.6789,156.125,36.81,87,73,13.02,RU,1620793933
149,Kaitangata,-46.2817,169.8464,51.01,61,52,1.19,NZ,1620793954
150,Council Bluffs,41.2619,-95.8608,51.01,66,75,6.78,US,1620793867
151,Lamar,33.6668,-95.5836,55.99,94,90,8.05,US,1620793955
152,Khuzhir,53.1939,107.3397,40.66,77,70,6.46,RU,1620793955
153,Marand,38.4329,45.7749,64.4,42,0,4.61,IR,1620793821
154,Talnakh,69.4865,88.3972,34.02,100,100,2.04,RU,1620793956
155,Kananga,-5.8958,22.4178,65.46,80,0,3.13,CD,1620793956
156,Fortuna,40.5982,-124.1573,52.0,87,1,3.44,US,1620793956
157,Mbuyapey,-26.2,-56.75,55.04,97,100,4.74,PY,1620793957
158,Chui,-33.6971,-53.4616,52.95,71,78,6.73,UY,1620793957
159,Olafsvik,64.8945,-23.7142,38.28,63,87,3.36,IS,1620793958
160,Mossamedes,-15.1961,12.1522,72.0,63,2,5.97,AO,1620793958
161,Rafaela,-31.2503,-61.4867,46.0,53,0,2.53,AR,1620793958
162,Swabi,34.1199,72.4699,85.46,36,30,3.2,PK,1620793959
163,Esim,4.8699,-2.2405,78.57,81,11,6.76,GH,1620793959
164,Baghdad,33.3406,44.4009,84.2,32,2,2.3,IQ,1620793813
165,Harper,4.375,-7.7169,79.3,75,97,4.65,LR,1620793960
166,Sakakah,29.9697,40.2064,78.8,17,3,8.05,SA,1620793908
167,Qurayyat,31.3318,37.3428,69.8,24,0,18.41,SA,1620793960
168,Patacamaya,-17.2333,-67.9167,40.91,89,44,6.35,BO,1620793961
169,North Platte,41.1239,-100.7654,46.99,65,1,6.91,US,1620793804
170,Scarborough,54.2797,-0.4044,46.0,93,16,1.01,GB,1620793800
171,Esperance,-33.8667,121.9,62.6,94,90,20.71,AU,1620793961
172,Longyearbyen,78.2186,15.6401,21.2,86,75,3.44,SJ,1620793962
173,Casian,11.035,119.7136,84.18,75,100,9.31,PH,1620793962
174,Aklavik,68.2191,-135.0107,37.4,64,100,10.36,CA,1620793962
175,Bara,10.3744,10.7288,80.89,60,52,8.46,NG,1620793963
176,Castro,-24.7911,-50.0119,57.13,80,100,3.0,BR,1620793696
177,Maragogi,-9.0122,-35.2225,74.88,88,23,5.37,BR,1620793963
178,Hue,16.4667,107.6,95.0,59,20,9.22,VN,1620793731
179,Avera,33.194,-82.5271,69.8,96,90,8.05,US,1620793964
180,Cilegon,-6.0174,106.0538,91.4,62,20,11.5,ID,1620793964
181,Hithadhoo,-0.6,73.0833,81.84,77,99,12.28,MV,1620793965
182,São Filipe,14.8961,-24.4956,74.66,70,26,10.02,CV,1620793965
183,Tomatlán,19.9333,-105.25,75.29,79,76,0.92,MX,1620793966
184,Jiuquan,39.7432,98.5174,73.4,14,44,10.71,CN,1620793966
185,Bethel,41.3712,-73.414,48.2,46,1,3.44,US,1620793966
186,Norman Wells,65.282,-126.8329,55.4,44,75,10.36,CA,1620793967
187,Ribeira Grande,38.5167,-28.7,61.23,86,12,8.03,PT,1620793672
188,San Quintín,30.4833,-115.95,58.98,79,0,5.53,MX,1620793968
189,Riyadh,24.6877,46.7219,84.2,26,0,7.56,SA,1620793817
190,Berbérati,4.2612,15.7922,67.95,98,81,2.55,CF,1620793969
191,Tilichiki,60.4667,166.1,28.26,79,55,8.5,RU,1620793969
192,Salmon Creek,45.7107,-122.649,66.2,42,1,10.36,US,1620793970
193,Quatre Cocos,-20.2078,57.7625,80.01,88,20,10.67,MU,1620793970
194,Obodivka,48.4051,29.2477,54.0,84,72,1.01,UA,1620793970
195,Comodoro Rivadavia,-45.8667,-67.5,62.6,48,0,3.44,AR,1620793817
196,George Town,5.4112,100.3354,89.01,74,20,4.61,MY,1620793971
197,Kumul,42.8,93.45,74.8,31,100,5.57,CN,1620793972
198,Forotic,45.2303,21.5875,64.4,34,0,35.68,RO,1620793972
199,Fort Nelson,58.8053,-122.7002,55.4,47,75,2.3,CA,1620793972
200,Karatsu,33.4425,129.9697,64.0,81,100,8.01,JP,1620793973
201,Mahād,18.0833,73.4167,93.72,44,33,4.59,IN,1620793973
202,Nikolskoye,59.7035,30.7861,61.0,47,0,4.47,RU,1620793973
203,Sanming,26.2486,117.6186,88.3,63,99,4.07,CN,1620793974
204,Khovd,48.0056,91.6419,57.83,28,28,9.89,MN,1620793974
205,Tarata,-17.6167,-66.0167,51.6,80,52,1.9,BO,1620793975
206,Diffa,13.3154,12.6113,84.56,33,11,5.77,NE,1620793975
207,Oussouye,12.485,-16.5469,73.4,88,0,4.61,SN,1620793976
208,Henties Bay,-22.116,14.2845,71.15,41,0,7.56,NA,1620793976
209,Chernoyerkovskaya,45.4331,37.7686,53.6,82,42,13.42,RU,1620793976
210,Yukhnov,54.7444,35.2297,52.41,67,3,3.56,RU,1620793977
211,Torbay,47.6666,-52.7314,42.01,93,75,10.36,CA,1620793977
212,Saldanha,-33.0117,17.9442,48.2,87,0,3.44,ZA,1620793977
213,La Ronge,55.1001,-105.2842,55.4,41,100,1.14,CA,1620793978
214,Nuquí,5.7125,-77.2708,78.6,89,100,3.22,CO,1620793978
215,Hīt,33.6416,42.8251,84.7,25,51,1.41,IQ,1620793979
216,Mountain Home,43.133,-115.6912,55.4,22,1,8.05,US,1620793740
217,Barra de Tecoanapa,16.5167,-98.75,82.58,74,37,3.53,MX,1620793979
218,Isangel,-19.55,169.2667,79.45,73,71,14.5,VU,1620793980
219,Hualmay,-11.0964,-77.6139,64.38,86,9,6.96,PE,1620793980
220,Itaituba,-4.2761,-55.9836,74.35,94,72,1.12,BR,1620793980
221,Olinda,-8.0089,-34.8553,73.4,88,40,6.91,BR,1620793981
222,Wasilla,61.5814,-149.4394,51.8,71,20,4.61,US,1620793981
223,Sinnamary,5.3833,-52.95,77.29,85,99,9.51,GF,1620793982
224,Tocopilla,-22.092,-70.1979,64.63,80,100,2.42,CL,1620793982
225,Birin,26.8865,88.0718,65.98,73,21,5.06,NP,1620793982
226,Leshukonskoye,64.8989,45.7622,61.11,68,97,10.0,RU,1620793983
227,San Patricio,28.017,-97.5169,80.6,94,75,11.5,US,1620793984
228,Churapcha,62.0025,132.4325,46.69,67,100,6.11,RU,1620793984
229,Acapulco de Juárez,16.8634,-99.8901,82.2,76,67,2.68,MX,1620793797
230,Beloha,-25.1667,45.05,67.23,80,0,6.04,MG,1620793985
231,Santa Cruz de la Sierra,-17.8,-63.1667,61.7,69,100,12.17,BO,1620793985
232,Uberaba,-19.7483,-47.9319,61.12,58,35,6.69,BR,1620793985
233,Nanortalik,60.1432,-45.2371,39.52,67,98,5.06,GL,1620793986
234,Faya,18.3851,42.4509,69.8,45,20,1.34,SA,1620793986
235,Zaozyornoye,45.1582,33.2787,57.0,54,22,11.07,UA,1620793987
236,Gobabis,-22.45,18.9667,53.82,47,0,8.95,NA,1620793987
237,Arrondissement de Saint-Jean-de-Maurienne,45.1667,6.5833,46.0,82,98,6.73,FR,1620793987
238,Atambua,-9.1061,124.8925,83.32,55,16,0.38,ID,1620793988
239,Chapais,49.7834,-74.8492,39.2,65,20,4.61,CA,1620793988
240,Mallasamudram,11.4833,78.0333,87.8,58,40,4.61,IN,1620793989
241,Quelimane,-17.8786,36.8883,68.0,94,40,5.75,MZ,1620793989
242,Yellowknife,62.456,-114.3525,30.2,69,20,4.61,CA,1620793989
243,Marawi,7.9986,124.2928,79.3,79,33,2.57,PH,1620793990
244,Soe,-9.8607,124.284,79.25,52,14,9.55,ID,1620793990
245,Bull Savanna,17.8868,-77.5902,74.86,81,0,12.41,JM,1620793991
246,Cayenne,4.9333,-52.3333,78.01,100,99,3.44,GF,1620793807
247,Willowmore,-33.2926,23.4895,51.73,81,0,4.59,ZA,1620793991
248,Mattru,7.6244,-11.8332,74.44,97,100,1.1,SL,1620793992
249,Seoul,37.5683,126.9778,77.0,23,0,4.61,KR,1620793945
250,Ardakān,32.31,54.0175,75.2,33,20,6.91,IR,1620793992
251,Arnedo,42.2167,-2.1,57.2,71,75,2.3,ES,1620793993
252,Puerto Carreño,6.189,-67.4859,74.01,94,83,5.64,CO,1620793755
253,Codrington,-38.2667,141.9667,60.3,54,0,5.06,AU,1620793993
254,Beni Mazar,28.4962,30.8029,70.2,52,0,6.69,EG,1620793994
255,Adrar,20.5022,-10.0711,78.62,12,0,11.59,MR,1620793994
256,Puerto Escondido,15.85,-97.0667,84.2,74,1,4.61,MX,1620793995
257,Kentau,43.5206,68.5094,72.27,37,1,17.72,KZ,1620793995
258,Boca do Acre,-8.7522,-67.3978,71.64,98,73,1.66,BR,1620793995
259,Batagay-Alyta,67.8006,130.4114,24.01,72,90,4.81,RU,1620793996
260,Provideniya,64.3833,-173.3,37.4,81,75,8.95,RU,1620793996
261,Vardø,70.3705,31.1107,37.4,81,75,6.91,NO,1620793997
262,Serenje,-13.2325,30.2352,51.73,85,2,4.27,ZM,1620793997
263,Imeni Poliny Osipenko,52.4201,136.4853,63.95,34,5,10.94,RU,1620793998
264,Okahandja,-21.9833,16.9167,51.8,54,0,9.22,NA,1620793998
265,Port Blair,11.6667,92.75,87.8,84,40,3.44,IN,1620793999
266,Cidreira,-30.1811,-50.2056,55.36,75,64,7.2,BR,1620793999
267,Palmer,42.1584,-72.3287,48.2,43,1,10.36,US,1620793827
268,Piaçabuçu,-10.4056,-36.4344,74.55,88,75,8.05,BR,1620794000
269,Gillette,44.2911,-105.5022,42.8,75,1,11.5,US,1620794000
270,Carnarvon,-24.8667,113.6333,84.2,34,0,9.22,AU,1620794000
271,The Valley,18.217,-63.0578,80.6,74,20,9.22,AI,1620794001
272,Alyangula,-13.8483,136.4192,87.8,51,14,10.36,AU,1620794001
273,Angoche,-16.2325,39.9086,72.36,83,92,7.52,MZ,1620794002
274,Nuuk,64.1835,-51.7216,32.0,93,75,6.91,GL,1620794002
275,Nānākuli,21.3906,-158.1547,80.6,54,20,8.05,US,1620794002
276,Chauk,20.8833,94.8167,98.26,29,15,9.04,MM,1620794003
277,Sulangan,11.1373,123.7228,85.23,69,52,7.45,PH,1620794003
278,Beliu,46.4833,21.9833,57.0,82,0,6.91,RO,1620794003
279,Nichinan,31.6,131.3667,66.2,100,75,14.97,JP,1620794004
280,Roebourne,-20.7833,117.1333,88.07,28,0,9.04,AU,1620794004
281,Thaba Nchu,-29.2093,26.839,35.6,93,0,2.3,ZA,1620794005
282,Tiksi,71.6872,128.8694,26.29,81,80,5.88,RU,1620794005
283,Ikalamavony,-21.15,46.5833,59.31,86,8,4.9,MG,1620793748
284,Betioky,-23.7167,44.3833,67.71,66,0,7.92,MG,1620794006
285,Stornoway,58.2093,-6.3865,46.4,93,75,13.8,GB,1620794006
286,Ilulissat,69.2167,-51.1,30.2,100,90,3.15,GL,1620794007
287,Aasiaat,68.7098,-52.8699,29.73,90,99,6.29,GL,1620794007
288,Praia,14.9215,-23.5087,73.4,73,20,17.27,CV,1620794007
289,Iquique,-20.2208,-70.1431,64.4,68,90,2.3,CL,1620794008
290,Zabaykal'sk,49.6333,117.3167,57.09,31,70,26.22,RU,1620794008
291,Sault Ste. Marie,46.5168,-84.3333,41.0,60,1,10.36,CA,1620794009
292,Río Gallegos,-51.6226,-69.2181,46.4,71,0,3.44,AR,1620794009
293,Nova Petrópolis,-29.3764,-51.1144,46.99,95,90,1.14,BR,1620793924
294,Krivosheino,57.3431,83.9261,62.94,37,5,4.94,RU,1620794010
295,Saint-Joseph,-21.3667,55.6167,75.2,64,0,4.61,RE,1620794010
296,Ostrovnoy,68.0531,39.5131,41.43,95,100,14.45,RU,1620794010
297,Manaure,11.7751,-72.4445,79.95,77,88,22.55,CO,1620794011
298,Nemuro,43.3236,145.575,50.0,66,40,12.66,JP,1620794011
299,Malé,4.1748,73.5089,82.4,94,90,26.46,MV,1620794012
300,Hamilton,39.1834,-84.5333,48.0,66,1,3.44,US,1620793803
301,Bambous Virieux,-20.3428,57.7575,80.01,88,20,10.25,MU,1620794012
302,Mgandu,-5.95,34.1333,59.94,85,70,6.8,TZ,1620794012
303,Borovichi,58.3878,33.9155,58.89,67,0,4.97,RU,1620794013
304,Abū Zabad,12.35,29.25,80.37,59,100,10.31,SD,1620794013
305,Dargaville,-35.9333,173.8833,62.58,87,60,7.83,NZ,1620794014
306,Tonj,7.2737,28.6822,72.28,90,100,3.71,SS,1620794014
307,Sur,22.5667,59.5289,87.93,52,10,7.29,OM,1620794014
308,Sitka,57.0531,-135.33,46.4,76,90,5.75,US,1620794015
309,Zelenoborskiy,66.845,32.3622,44.01,100,100,1.23,RU,1620794015
310,Khor,47.8861,134.9464,62.42,45,100,10.16,RU,1620794015
311,Portland,45.5234,-122.6762,64.0,53,100,3.96,US,1620793977
312,Tautira,-17.7333,-149.15,84.0,65,75,4.61,PF,1620794016
313,Kokoda,-8.8785,147.7407,87.39,57,35,5.41,PG,1620794016
314,Rio Grande,-32.035,-52.0986,41.0,97,18,10.25,BR,1620794017
315,Lagoa,39.05,-27.9833,60.75,83,13,14.25,PT,1620794017
316,El Sauzal de Rodríguez,31.9,-116.6833,61.0,78,0,1.97,MX,1620794018
317,East London,-33.0153,27.9116,53.6,94,0,4.61,ZA,1620794018
318,Acajutla,13.5928,-89.8275,71.01,98,30,1.01,SV,1620794019
319,Ocho Rios,18.4025,-77.1048,75.99,93,0,8.57,JM,1620794019
320,Nazarovo,56.0064,90.3914,62.31,37,31,9.46,RU,1620794019
321,Talaya,61.3833,152.75,34.77,67,100,4.74,RU,1620794020
322,Port Lincoln,-34.7333,135.8667,62.44,51,15,4.88,AU,1620794020
323,Dingle,10.9995,122.6711,89.89,57,84,12.01,PH,1620794021
324,Kemijärvi,66.7131,27.4306,41.49,99,100,2.33,FI,1620794021
325,Denpasar,-8.65,115.2167,86.0,70,20,17.27,ID,1620794021
326,Lompoc,34.6391,-120.4579,54.0,94,9,4.61,US,1620794022
327,Las Tunas,20.9617,-76.9511,77.0,88,20,8.05,CU,1620794022
328,Egvekinot,66.3167,-179.1667,30.9,99,100,4.52,RU,1620794023
329,Biak,-0.9131,122.8766,84.6,67,38,5.5,ID,1620794023
330,Chimbote,-9.0853,-78.5783,63.64,90,2,5.53,PE,1620794024
331,Bowen,-20.0167,148.2333,84.2,58,51,11.5,AU,1620794024
332,Flinders,-34.5833,150.8552,66.0,72,76,1.01,AU,1620794024
333,Laguna de Perlas,12.3429,-83.6712,78.42,89,61,10.85,NI,1620794025
334,Porto Santo,33.072,-16.3415,62.6,72,20,8.05,PT,1620794025
335,Athabasca,54.7169,-113.2854,46.4,76,67,4.61,CA,1620793804
336,Evensk,61.95,159.2333,36.54,94,20,4.09,RU,1620794026
337,Silopi,37.2497,42.4694,78.44,16,0,2.62,TR,1620794026
338,Upernavik,72.7868,-56.1549,27.3,97,99,3.02,GL,1620794026
339,Bubaque,11.2833,-15.8333,77.13,77,77,10.76,GW,1620794027
340,Gucheng,35.9115,111.3192,84.13,31,64,7.87,CN,1620794027
341,Sobolevo,54.4299,31.8996,50.67,73,14,10.87,RU,1620794028
342,Matara,5.9485,80.5353,87.57,62,99,5.26,LK,1620794028
343,Sādāt,25.6833,83.2833,86.0,66,20,6.91,IN,1620794028
344,Santa Rosa,14.3122,121.1114,93.2,55,20,12.66,PH,1620794029
345,Crestview,30.7621,-86.5705,64.99,100,40,3.44,US,1620794029
346,Manado,1.487,124.8455,95.0,49,20,9.22,ID,1620794030
347,Camaçari,-12.6975,-38.3242,78.8,61,75,8.05,BR,1620794030
348,Kattivākkam,13.2167,80.3167,89.6,62,40,6.91,IN,1620794030
349,Adelanto,34.5828,-117.4092,70.0,33,0,7.07,US,1620794031
350,Khanpur,28.6453,70.6567,97.32,25,0,12.66,PK,1620793796
351,Ponta Delgada,37.7333,-25.6667,55.4,82,20,3.44,PT,1620794031
352,Rancho Palos Verdes,33.7445,-118.387,62.01,89,53,1.99,US,1620794032
353,Naze,28.3667,129.4833,75.2,94,75,18.41,JP,1620794032
354,Zhaoyang,42.682,126.0305,61.09,63,99,13.67,CN,1620794033
355,Havøysund,70.9963,24.6622,39.2,65,75,3.44,NO,1620794033
356,Murray Bridge,-35.1167,139.2667,62.01,68,0,4.65,AU,1620794033
357,Pangnirtung,66.1451,-65.7125,19.04,87,74,7.34,CA,1620794034
358,Togur,58.3631,82.8265,59.79,35,5,4.9,RU,1620794034
359,Tateyama,34.9833,139.8667,70.0,68,75,14.97,JP,1620794035
360,Springfield,37.2153,-93.2982,53.6,76,90,11.5,US,1620793786
361,Cartagena del Chairá,1.3349,-74.8429,70.81,98,100,2.64,CO,1620794035
362,Aquiraz,-3.9014,-38.3911,78.01,94,75,6.91,BR,1620794036
363,Paita,-5.0892,-81.1144,68.63,74,3,10.96,PE,1620794036
364,Sibu,2.3,111.8167,91.4,62,40,5.75,MY,1620794037
365,Auki,-8.7676,160.7034,82.44,75,72,1.34,SB,1620794037
366,Tiznit Province,29.5833,-9.5,58.14,66,2,0.47,MA,1620794038
367,Moree,-29.4667,149.85,68.0,49,40,10.36,AU,1620794038
368,Cao Bang,22.6667,106.25,89.83,61,78,6.91,VN,1620794038
369,Mitsamiouli,-11.3847,43.2844,69.8,78,20,3.44,KM,1620794039
370,Montluçon,46.3333,2.6,39.99,95,81,5.14,FR,1620794033
371,Durrës,41.3231,19.4414,59.0,77,0,3.44,AL,1620794039
372,Bāfq,31.6128,55.4107,81.36,26,9,9.62,IR,1620794040
373,Shizunai-furukawachō,42.3339,142.3669,47.64,78,22,10.87,JP,1620794040
374,Savé,8.0425,2.486,74.68,89,26,5.28,BJ,1620794040
375,Ubari,26.5921,12.7805,82.98,11,21,7.34,LY,1620794041
376,Hot Springs,34.5037,-93.0552,55.4,94,90,12.66,US,1620793995
377,Mackay,-21.15,149.2,82.0,78,16,14.97,AU,1620793896
378,Aurdal,60.9242,9.4159,39.0,84,100,1.99,NO,1620794042
379,Broome,42.2506,-75.833,39.0,70,1,9.22,US,1620794042
380,Shache,38.4167,77.2406,78.76,20,100,18.81,CN,1620794042
381,Alibag,18.6411,72.8792,89.6,58,40,3.44,IN,1620794043
382,Balsas,-7.5325,-46.0356,75.63,66,66,4.27,BR,1620794043
383,Bosaso,11.2842,49.1816,86.0,84,0,9.22,SO,1620794044
384,Aykino,62.2248,49.9922,61.5,61,100,9.57,RU,1620794044
385,Sabang,5.8933,95.3214,84.69,69,65,3.62,ID,1620794044
386,San Miguel de Tucumán,-26.8241,-65.2226,48.2,93,7,5.75,AR,1620794045
387,Yumen,40.2833,97.2,71.22,14,54,16.55,CN,1620794045
388,Chernyshevskiy,63.0128,112.4714,39.02,48,100,6.02,RU,1620794045
389,Yangi Marg`ilon,40.4272,71.7189,73.4,38,0,4.61,UZ,1620794046
390,Senanga,-16.1167,23.2667,53.1,57,0,5.59,ZM,1620794046
391,São Domingos,-13.3983,-46.3183,64.35,65,46,4.81,BR,1620794047
392,Ossora,59.2353,163.0719,33.55,82,91,6.08,RU,1620794047
393,Panguna,-6.3164,155.4848,75.96,80,77,2.33,PG,1620794047
394,Sioux Lookout,50.1001,-91.917,39.2,60,1,3.44,CA,1620794048
395,Sheridan,44.8333,-106.9173,46.0,65,1,4.61,US,1620794048
396,Pavlivka,49.4414,28.4596,51.8,71,46,13.42,UA,1620794049
397,Lodja,-3.4833,23.4333,68.13,88,12,1.1,CD,1620794049
398,Honningsvåg,70.9821,25.9704,39.2,65,75,3.44,NO,1620794049
399,Astoria,46.1879,-123.8313,53.6,82,1,9.22,US,1620794050
400,Cockburn Town,21.4612,-71.1419,79.03,85,24,22.17,TC,1620794050
401,Laas,46.6166,10.7002,46.0,100,75,8.05,IT,1620794051
402,Antigua Ocotepeque,14.4,-89.2,72.3,81,45,3.04,HN,1620794051
403,Zhangjiakou Shi Xuanhua Qu,40.6103,115.0447,67.5,37,97,5.66,CN,1620794051
404,Berkovica,44.6156,18.4294,53.6,100,40,3.44,BA,1620794052
405,Yabrūd,33.9674,36.6574,48.2,53,0,6.91,SY,1620794052
406,Nueva Loja,0.0847,-76.8828,69.48,96,80,2.1,EC,1620794053
407,Mount Isa,-20.7333,139.5,78.8,25,0,6.91,AU,1620794053
408,Tarko-Sale,64.9225,77.785,43.0,78,72,16.31,RU,1620793926
409,South Plainfield,40.5793,-74.4115,52.0,40,1,10.36,US,1620793753
410,Lüderitz,-26.6481,15.1594,66.76,43,0,7.74,NA,1620794054
411,Erdenet,49.0333,104.0833,53.17,30,68,9.08,MN,1620793764
412,Ugoofaaru,5.6667,73.0,79.14,93,100,22.41,MV,1620794055
413,Pimenteiras,-6.2453,-41.4192,70.09,77,64,4.41,BR,1620794055
414,Bulungu,-4.55,18.6,67.87,81,0,2.33,CD,1620794055
415,Deputatsky,69.3,139.9,22.01,83,100,6.08,RU,1620794056
416,Vila,42.0304,-8.1588,51.01,88,89,21.0,PT,1620794056
417,Hambantota,6.1241,81.1185,86.0,84,40,9.22,LK,1620794056
418,Lodwar,3.1191,35.5973,75.88,71,99,1.83,KE,1620794057
419,São João da Barra,-21.6403,-41.0511,67.91,82,5,8.63,BR,1620794057
420,Mpika,-11.8343,31.4529,53.67,82,0,5.59,ZM,1620794058
421,Yichang,30.7144,111.2847,82.29,56,100,5.7,CN,1620794058
422,Karaton,-6.3424,106.1045,91.4,62,20,13.8,ID,1620794058
423,Kuito,-12.3833,16.9333,50.31,71,4,3.09,AO,1620794059
424,Gabú,12.2833,-14.2167,77.59,68,99,7.05,GW,1620794059
425,Erbil,36.1926,44.0106,73.4,18,0,4.61,IQ,1620794060
426,Inndyr,67.0338,14.0276,53.6,58,20,10.36,NO,1620794060
427,Pāsighāt,28.0667,95.3333,71.94,85,100,2.55,IN,1620794060
428,Bitkine,11.9801,18.2138,85.73,40,69,5.35,TD,1620794061
429,Östersund,63.1792,14.6357,48.99,93,20,1.72,SE,1620793835
430,Tshikapa,-6.4167,20.8,66.78,80,0,2.77,CD,1620794061
431,Keetmanshoop,-26.5833,18.1333,57.2,33,0,8.05,NA,1620794062
432,Yaan,7.3833,8.5667,75.72,89,96,6.64,NG,1620794062
433,Skellefteå,64.7507,20.9528,52.0,100,90,2.3,SE,1620794062
434,Pangoa,-12.1167,-73.0,66.07,96,19,3.18,PE,1620794063
435,Padre Bernardo,-15.35,-48.5,60.42,71,84,2.13,BR,1620794063
436,Mouila,-1.8685,11.0559,73.56,98,94,0.83,GA,1620794064
437,Horsham,51.064,-0.3272,50.0,87,20,6.91,GB,1620793836
438,Bonthe,7.5264,-12.505,76.33,92,100,3.56,SL,1620794064
439,Barguzin,53.6167,109.6167,51.24,55,49,10.09,RU,1620794065
440,Altrincham,53.3875,-2.3485,45.0,100,90,2.3,GB,1620794065
441,Āsosa,10.0667,34.5333,65.75,72,88,2.71,ET,1620794065
442,Hailar,49.2,119.7,47.37,68,100,23.78,CN,1620794048
443,‘Ewa Beach,21.3156,-158.0072,80.6,54,20,8.05,US,1620793978
444,Mana,5.6592,-53.7767,76.73,87,98,7.87,GF,1620794066
445,Seydi,39.4816,62.9137,79.52,23,0,14.18,TM,1620794066
446,Port Pirie,-33.1833,138.0167,60.8,51,0,5.75,AU,1620794067
447,Havre-St-Pierre,50.2334,-63.5986,39.2,81,75,6.91,CA,1620794067
448,Doumé,4.2333,13.45,67.64,99,92,1.48,CM,1620794068
449,Dunedin,-45.8742,170.5036,45.97,59,36,2.82,NZ,1620793922
450,Tezu,27.9167,96.1667,79.74,62,100,5.44,IN,1620794068
451,La Crosse,43.8014,-91.2396,44.6,57,1,3.44,US,1620793811
452,Pithoro,25.5167,69.3833,96.15,35,6,18.03,PK,1620794069
453,Touros,-5.1989,-35.4608,73.4,94,0,6.91,BR,1620794069
454,Portage,41.1667,-81.1998,39.99,70,75,3.44,US,1620793789
455,Birchiş,45.9667,22.1667,57.2,72,0,10.36,RO,1620794070
456,Chicama,-7.8447,-79.1469,64.4,88,40,5.75,PE,1620794070
457,Ternate,0.8,127.4,86.11,67,19,6.82,ID,1620794071
458,Darhan,49.4867,105.9228,62.19,21,3,10.07,MN,1620794071
459,Valparaíso,-33.0393,-71.6273,54.0,76,2,4.94,CL,1620794071
460,Ust-Maya,60.4167,134.5333,58.68,48,98,7.56,RU,1620794072
461,Elmadağ,39.9208,33.2308,52.0,57,0,1.14,TR,1620794072
462,Elko,41.0002,-115.5012,53.6,19,1,4.61,US,1620794073
463,Mvuma,-19.2792,30.5283,49.73,88,0,5.66,ZW,1620794073
464,Manoel Urbano,-8.8389,-69.2597,70.93,99,70,1.95,BR,1620794073
465,Spencer,43.1414,-95.1444,50.0,49,1,4.61,US,1620794074
466,Litovko,49.2361,135.1742,60.21,45,86,8.81,RU,1620794074
467,Kieta,-6.2167,155.6333,83.17,73,53,4.79,PG,1620794075
468,Clyde River,70.4692,-68.5914,19.4,93,90,3.44,CA,1620794075
469,Garissa,-0.4536,39.6401,78.35,64,95,15.46,KE,1620794075
470,Thai Nguyen,21.5928,105.8442,89.6,70,40,4.61,VN,1620793888
471,Runkel,50.4,8.1667,48.99,97,100,7.76,DE,1620794076
472,Kungurtug,50.5994,97.5228,54.64,29,94,1.63,RU,1620794076
473,Sacama,-3.9,-79.2667,49.37,93,45,5.59,EC,1620794077
474,Toamasina,-18.1667,49.3833,73.4,88,40,6.91,MG,1620793999
475,Husavik,66.0449,-17.3389,23.0,86,0,2.3,IS,1620794077
476,Xai-Xai,-25.0519,33.6442,63.52,91,2,6.04,MZ,1620794078
477,Kavieng,-2.5744,150.7967,80.46,82,95,9.06,PG,1620794078
478,Avilés,43.5547,-5.9248,55.4,67,20,8.05,ES,1620794077
479,Mosquera,4.7059,-74.2302,55.4,94,75,5.75,CO,1620794079
480,Pangkalanbuun,-2.6833,111.6167,92.44,50,70,4.34,ID,1620794080
481,Laguna,38.421,-121.4238,77.0,25,1,6.91,US,1620794080
482,Batemans Bay,-35.7167,150.1833,69.01,64,28,4.16,AU,1620794081
483,Manggar,-2.8833,108.2667,84.09,78,100,11.07,ID,1620794081
484,Mount Gambier,-37.8333,140.7667,60.8,55,0,5.75,AU,1620794081
485,Selishche,56.8879,33.2691,58.21,77,0,5.79,RU,1620794082
486,Dzhebariki-Khaya,62.2167,135.8,57.11,54,100,7.43,RU,1620794082
487,Freeport,40.6576,-73.5832,55.4,33,90,10.36,US,1620793845
488,Necochea,-38.5473,-58.7368,45.5,58,0,10.63,AR,1620794083
489,Kununurra,-15.7667,128.7333,91.4,27,0,12.66,AU,1620794083
490,Guerrero Negro,27.9769,-114.0611,59.18,81,0,12.33,MX,1620794083
491,Raudeberg,61.9875,5.1352,46.0,87,98,8.43,NO,1620794084
492,Zharkent,44.1628,80.0,71.56,32,19,16.82,KZ,1620794084
493,Katsina,12.9894,7.6006,80.96,41,34,9.33,NG,1620794085
494,Aketi,2.7388,23.7833,70.81,92,99,1.21,CD,1620794085
495,Iwanai,42.9744,140.5089,56.95,58,6,4.25,JP,1620794086
496,Valdemārpils,57.3707,22.5919,59.0,51,0,9.22,LV,1620794086
497,Formosa do Rio Preto,-11.0483,-45.1931,72.18,57,99,2.57,BR,1620794087
498,Dudinka,69.4058,86.1778,32.18,99,100,3.38,RU,1620794087
499,Zacualpan,21.25,-105.1667,81.0,83,90,3.56,MX,1620794087
500,Melukote,12.6589,76.6506,80.6,78,40,3.44,IN,1620794088
501,Alofi,-19.0595,-169.9187,75.2,88,75,14.97,NU,1620794088
502,Itoman,26.1247,127.6694,84.2,89,75,16.11,JP,1620794089
503,Ekhabi,53.5102,142.9671,43.52,66,2,11.23,RU,1620794089
504,Locri,38.2414,16.2623,66.2,68,45,14.97,IT,1620794089
505,Strelka,58.0728,93.0344,57.16,36,7,5.12,RU,1620794090
506,Vysokogornyy,50.1167,139.15,57.24,37,71,6.02,RU,1620794090
507,Inuvik,68.3499,-133.7218,37.4,64,94,10.36,CA,1620794091
508,Srednekolymsk,67.45,153.6833,28.4,80,100,0.74,RU,1620794091
509,Gravdal,68.1214,13.5031,42.8,87,0,3.44,NO,1620794091
510,Lillooet,50.6856,-121.942,66.2,27,1,4.61,CA,1620794092
511,Rafai,4.95,23.9167,69.13,99,98,2.44,CF,1620794092
512,Coos Bay,43.3665,-124.2179,52.0,87,40,20.71,US,1620794044
513,Matagami,49.7502,-77.6328,35.6,75,1,9.22,CA,1620794093
514,Betlitsa,54.0095,33.9588,49.41,71,2,5.48,RU,1620794093
515,Brownsville,25.9018,-97.4975,82.4,78,90,16.11,US,1620793898
516,Bilma,18.6853,12.9164,87.96,11,5,6.17,NE,1620794094
517,Vestmannaeyjar,63.4427,-20.2734,40.1,63,23,3.96,IS,1620794094
518,Celendín,-6.8703,-78.1517,50.79,91,24,2.33,PE,1620794095
519,Suşehri,40.1644,38.0867,54.59,46,0,3.56,TR,1620794095
520,Mareeba,-17.0,145.4333,87.8,58,94,10.36,AU,1620794095
521,Turaif,31.6725,38.6637,73.4,33,0,4.61,SA,1620794096
522,Riverton,40.5219,-111.9391,51.01,53,1,5.75,US,1620794096
523,Mogadishu,2.0371,45.3438,80.6,69,90,14.97,SO,1620793974
524,Örnsköldsvik,63.2909,18.7153,44.6,100,75,3.44,SE,1620794097
525,Mēga,4.05,38.3,59.36,90,99,6.8,ET,1620794097
526,Norrtälje,59.758,18.705,55.99,66,0,8.05,SE,1620794098
527,Berezovyy,51.6667,135.7,65.16,30,41,9.35,RU,1620794098
528,Ixtapa,20.7,-105.2,81.0,83,90,2.33,MX,1620794098
529,Ust-Nera,64.5667,143.2,44.51,67,100,5.14,RU,1620794099
530,Kobryn,52.2138,24.3564,53.6,62,21,6.71,BY,1620794099
531,Sal Rei,16.1833,-22.9167,69.8,88,20,18.41,CV,1620794100
532,Palauig,15.435,119.9045,88.97,62,16,10.18,PH,1620794100
533,Lambaréné,-0.7001,10.2406,74.59,96,68,1.7,GA,1620794101
534,Mulanje,-16.0316,35.5,60.51,95,35,2.82,MW,1620794101
535,Al Bardīyah,31.7561,25.0865,65.77,63,2,6.31,LY,1620794101
536,Marzuq,14.4,46.4667,81.52,29,94,3.06,YE,1620794102
537,Altay,47.8667,88.1167,54.05,43,96,7.81,CN,1620794102
538,Hanting,36.7708,119.2108,78.48,54,37,7.52,CN,1620794103
539,Okhotsk,59.3833,143.3,37.9,70,88,7.83,RU,1620794103
540,Kenai,60.5544,-151.2583,42.8,93,90,4.61,US,1620794104
541,Armidale,-30.5167,151.65,64.0,63,99,3.0,AU,1620794104
542,Nang Rong,14.6377,102.7914,91.99,74,0,5.75,TH,1620794104
543,Nyurba,63.2842,118.3319,46.15,37,81,7.47,RU,1620794105
544,Wajima,37.4,136.9,64.4,42,0,10.36,JP,1620794105
545,Halifax,44.6453,-63.5724,41.0,93,83,13.8,CA,1620793861
546,Brae,60.3964,-1.353,46.4,93,90,11.5,GB,1620794106
547,Zaoyang,32.1272,112.7542,80.35,56,97,5.91,CN,1620794106
548,Gimli,50.6336,-96.9907,51.8,50,13,6.91,CA,1620794107
549,Vao,-22.6667,167.4833,74.91,78,99,19.6,NC,1620794107
550,Anadyr,64.75,177.4833,33.8,93,75,17.9,RU,1620794107
551,Usinsk,65.9939,57.5281,46.0,96,100,12.37,RU,1620794108
552,Orbetello,42.4408,11.2196,54.0,81,20,3.44,IT,1620794108
553,Mersing,2.4312,103.8405,89.6,74,40,6.91,MY,1620794108
554,Singaraja,-8.112,115.0882,86.14,65,42,3.31,ID,1620794109
555,Williams Lake,52.1415,-122.1445,57.2,33,75,5.75,CA,1620794109
556,Cienfuegos,22.1461,-80.4356,80.6,78,19,6.91,CU,1620794110
557,Djambala,-2.5447,14.7533,67.66,90,0,1.92,CG,1620794110
558,Leh,34.1667,77.5833,47.41,51,85,5.99,IN,1620793989
559,Santa Maria,-29.6842,-53.8069,44.6,100,0,1.14,BR,1620794111
560,Seymchan,62.8833,152.4333,38.73,56,93,3.53,RU,1620794111
561,Amapá,1.0,-52.0,69.78,99,100,2.01,BR,1620794111
562,Yarmouth,41.7057,-70.2286,53.6,40,1,5.75,US,1620794066
563,Yenagoa,4.9247,6.2642,75.16,91,94,4.0,NG,1620794112
564,Labuhan,-6.8844,112.2051,87.96,62,55,6.98,ID,1620794112
565,Surskoye,54.4821,46.7214,65.98,63,70,10.07,RU,1620794113
566,Nome,64.5011,-165.4064,51.01,81,1,14.97,US,1620793959
567,Irbit,57.6705,63.071,65.03,46,74,6.17,RU,1620793935
568,Äänekoski,62.6946,25.818,57.2,67,0,4.61,FI,1620794113
569,Benidorm,38.5382,-0.131,59.0,50,1,6.64,ES,1620794114
